{
  "type": "FeatureCollection",
  "features": [
    {
      "type": "Feature",
      "properties": {
        "name": "ESRI",
        "role": "Technical Marketing Intern",
        "time": "Summer 2014",
        "type": "work"
      },
      "geometry": {
        "type": "Point",
        "coordinates": [
          -117.19568967819214,
          34.05641053454641
        ]
      }
    },
    {
      "type": "Feature",
      "properties": {
        "name": "Penn State University",
        "role": "Research Assistant",
        "time": "December 2013-Present",
        "type": "work"
      },
      "geometry": {
        "type": "Point",
        "coordinates": [
          -77.86687731742859,
          40.79325436303818
        ]
      }
    },
    {
      "type": "Feature",
      "properties": {
        "name": "State College Borough",
        "role": "GIS Intern",
        "time": "Fall 2013",
        "type": "work"
      },
      "geometry": {
        "type": "Point",
        "coordinates": [
          -77.85886287689209,
          40.792815746526834
        ]
      }
    },
    {
      "type": "Feature",
      "properties": {
        "name": "Summer's Best Two Weeks",
        "role": "Camp Counselor",
        "time": "Summer 2012, 2013",
        "type": "work"
      },
      "geometry": {
        "type": "Point",
        "coordinates": [
          -79.09675598144531,
          40.155392485732726
        ]
      }
    },
    {
      "type": "Feature",
      "properties": {
        "name": "Grand Canyon",
        "role": "5-Day Backpacking Tip",
        "time": "January 2015",
        "type": "play"
      },
      "geometry": {
        "type": "Point",
        "coordinates": [
          -112.09625244140625,
          36.04743345598549
        ]
      }
    },
    {
      "type": "Feature",
      "properties": {
        "name": "Canyonlands National Park",
        "role": "Hiking, Exploring",
        "time": "May 2014, January 2015",
        "type": "play"
      },
      "geometry": {
        "type": "Point",
        "coordinates": [
          -109.86396789550781,
          38.30825817353996
        ]
      }
    },
    {
      "type": "Feature",
      "properties": {
        "name": "Arches National Park",
        "role": "Exploring",
        "time": "May 2014, January 2015",
        "type": "play"
      },
      "geometry": {
        "type": "Point",
        "coordinates": [
          -109.5347213745117,
          38.68510776818861
        ]
      }
    },
    {
      "type": "Feature",
      "properties": {
        "name": "Pacific Coast Highway",
        "role": "2-Day Road Trip",
        "time": "July 2015",
        "type": "play"
      },
      "geometry": {
        "type": "Point",
        "coordinates": [
          -121.89125061035155,
          36.33946565299958
        ]
      }
    },
    {
      "type": "Feature",
      "properties": {
        "name": "Yosemite",
        "role": "Hiking, Exploring",
        "time": "August 2014",
        "type": "play"
      },
      "geometry": {
        "type": "Point",
        "coordinates": [
          -119.57107543945311,
          37.72782336496339
        ]
      }
    },
    {
      "type": "Feature",
      "properties": {
        "name": "Pacific Coast Highway",
        "role": "2-Day Road Trip",
        "time": "July 2014",
        "type": "play"
      },
      "geometry": {
        "type": "Point",
        "coordinates": [
          -119.26448822021483,
          37.91603433975963
        ]
      }
    },
    {
      "type": "Feature",
      "properties": {
        "name": "Wasatch Mountain",
        "role": "Cross-Country Road Trip",
        "time": "August 2014",
        "type": "play"
      },
      "geometry": {
        "type": "Point",
        "coordinates": [
          -111.38900756835938,
          40.46889024168825
        ]
      }
    },
    {
      "type": "Feature",
      "properties": {
        "name": "Rocky Mountain National Park",
        "role": "Hiking, Campling",
        "time": "August 2014",
        "type": "play"
      },
      "geometry": {
        "type": "Point",
        "coordinates": [
          -105.65483093261719,
          40.30963984228559
        ]
      }
    },
    {
      "type": "Feature",
      "properties": {
        "name": "Oklahoma City",
        "role": "OKC Thunder Basletball Game",
        "time": "January 2015",
        "type": "play"
      },
      "geometry": {
        "type": "Point",
        "coordinates": [
          -97.51512050628662,
          35.46383333003051
        ]
      }
    },
    {
      "type": "Feature",
      "properties": {
        "name": "Joshua Tree National Park",
        "role": "Hiking, Avoiding Rattlesnakes",
        "time": "May 2014",
        "type": "play"
      },
      "geometry": {
        "type": "Point",
        "coordinates": [
          -116.18574142456055,
          34.04014265821752
        ]
      }
    }
  ]
}